{"africa":[{"uid":"58","map":"de-ka","type":"africa","name":"Restaurant Kilimanjaro","entryId":"779","url":"","imageName":"","website":null,"address":"Vorholzstraße 13, 76137 Karlsruhe, Deutschland","lat":"48.9995","lng":"8.39363"},{"uid":"57","map":"de-ka","type":"africa","name":"Restaurant Mogogo","entryId":"480","imageName":"","website":null,"address":"Stephanienstraße 2a, 76133 Karlsruhe, Deutschland","lat":"49.0127","lng":"8.39801"}],"asia":[{"uid":"107","map":"de-ka","type":"asia","pinColor":"#4B2971","name":"Aroy Aroy Thai Restaurant","entryId":"910","imageName":null,"address":"Joachim-Kurzaj-Weg 5a, 76189 Karlsruhe","lat":"48.9944","lng":"8.36175"},{"uid":"28","map":"de-ka","type":"asia","pinColor":"#4B2971","name":"Bangkok Foodland","entryId":"266","imageName":"","website":null,"address":"Leopoldstr. 18, 76133 Karlsruhe, Deutschland","lat":"49.0082","lng":"8.38951"},{"uid":"49","map":"de-ka","type":"asia","pinColor":"#4B2971","name":"China Bao","entryId":"774","imageName":"","website":null,"address":"Kaiserpassage 132, 76133 Karlsruhe, Deutschland","lat":"49.0103","lng":"8.39661"},{"uid":"34","map":"de-ka","type":"asia","pinColor":"#4B2971","name":"China Restaurant Niu","entryId":"376","imageName":"","website":null,"address":"Am Entenfang 2, 76185 Karlsruhe, Deutschland","lat":"49.0111","lng":"8.35957"},{"uid":"35","map":"de-ka","type":"asia","pinColor":"#4B2971","name":"Chinaimbiss Rhein Wok","entryId":"415","imageName":"","website":null,"address":"Rheinstr. 99, 76185 Karlsruhe, Deutschland","lat":"49.0141","lng":"8.35476"},{"uid":"44","map":"de-ka","type":"asia","pinColor":"#4B2971","name":"Chinaimbiss Yin-Yang","entryId":"604","imageName":"","website":null,"address":"Akademiestraße 41, 76131 Karlsruhe, Deutschland","lat":"49.0109","lng":"8.39579"},{"uid":"43","map":"de-ka","type":"asia","name":"Emily\u00b4s Thaispezialitäten","entryId":"574","imageName":"","website":null,"address":"Eggensteinerstraße 11, 76187 Knielingen, Deutschland","lat":"49.0336","lng":"8.33767"},{"uid":"45","map":"de-ka","type":"asia","name":"Fashion Asia Grill","entryId":"661","imageName":"","website":null,"address":"Daxlander Straße 125, 76185 Karlsruhe, Deutschland","lat":"49.0072","lng":"8.34205"},{"uid":"27","map":"de-ka","type":"asia","name":"Krua Thai","entryId":"258","imageName":"","website":null,"address":"Passagehof 28, 76133 Karlsruhe, Deutschland","lat":"49.0107","lng":"8.39606"},{"uid":"53","map":"de-ka","type":"asia","name":"Mala Tang Chinese Streetfood","entryId":"824","imageName":"","website":null,"address":"Waldhornstraße 22, 76131 Karlsruhe, Deutschland","lat":"49.0098","lng":"8.40967"},{"uid":"54","map":"de-ka","type":"asia","name":"Min Ramenbar","entryId":"840","imageName":"","website":null,"address":"Waldstaße 19, 76131 Karlsruhe, Deutschland","lat":"49.0107","lng":"8.39888"},{"uid":"29","map":"de-ka","type":"asia","name":"Restaurant 5 Sterne","entryId":"282","imageName":"","website":null,"address":"Rüppurrer Str. 1, 76137 Karlsruhe, Deutschland","lat":"49.0056","lng":"8.4111"},{"uid":"51","map":"de-ka","type":"asia","name":"Restaurant Bambus Garten","entryId":"794","imageName":"","website":null,"address":"Raiherwiesenstraße 30, 76227 Karlsruhe, Deutschland","lat":"48.998","lng":"8.45833"},{"uid":"24","map":"de-ka","type":"asia","name":"Restaurant Da Nang","entryId":"111","imageName":"","website":null,"address":"Kaiserstr. 117, 76133 Karlsruhe, Deutschland","lat":"49.0094","lng":"8.40651"},{"uid":"26","map":"de-ka","type":"asia","name":"Restaurant Kaiseki","entryId":"204","imageName":"","website":null,"address":"Karlstraße. 58, 76133 Karlsruhe, Deutschland","lat":"49.0031","lng":"8.3942"},{"uid":"55","map":"de-ka","type":"asia","name":"Restaurant Mam Mam","entryId":"851","imageName":"","website":null,"address":"Grudrunstraße 1, 76227 Karlsruhe, Deutschland","lat":"48.9965","lng":"8.45583"},{"uid":"56","map":"de-ka","type":"asia","name":"Restaurant Soban","entryId":"855","imageName":"","website":null,"address":"Kriegsstraße 196, 76137 Karlsruhe, Deutschland","lat":"49.0056","lng":"8.38741"},{"uid":"52","map":"de-ka","type":"asia","name":"Restaurant Soong Hau","entryId":"811","imageName":"","website":null,"address":"Wilhelmstraße 17, 76137 Karlsruhe, Deutschland","lat":"49.0028","lng":"8.40569"},{"uid":"33","map":"de-ka","type":"asia","name":"Restaurant Taumi","entryId":"391","imageName":"","website":null,"address":"Lorenzstr 29, 76135 Karlsruhe, Deutschland","lat":"48.9999","lng":"8.3831"},{"uid":"46","map":"de-ka","type":"asia","name":"Restaurant Thai Orchid","entryId":"665","imageName":"","website":null,"address":"Adlerstraße 44, 76133 Karlsruhe, Deutschland","lat":"49.0063","lng":"8.40817"},{"uid":"31","map":"de-ka","type":"asia","pinColor":"#4B2971","name":"Yangda im Passagehof","entryId":"367","imageName":"","website":null,"address":"Passagehof 28, 76133 Karlsruhe, Deutschland","lat":"49.0107","lng":"8.39612"},{"uid":"47","map":"de-ka","type":"asia","pinColor":"#4B2971","name":"Restaurant Yangda","entryId":"666","imageName":"","website":null,"address":"Kaiserstraße 114, 76133 Karlsruhe, Deutschland","lat":"49.01","lng":"8.39862"},{"uid":"25","map":"de-ka","type":"asia","pinColor":"#4B2971","name":"Rim Wang","entryId":"124","imageName":"","website":null,"address":"Eckenerstrasse 1, 76185 Karlsruhe, Deutschland","lat":"49.0052","lng":"8.35006"},{"uid":"36","map":"de-ka","type":"asia","pinColor":"#4B2971","name":"Sabaidi Thai Food","entryId":"775","imageName":"","website":null,"address":"Sophienstraße 59A, 76133 Karlsruhe, Deutschland","lat":"49.0074","lng":"8.3889"},{"uid":"23","map":"de-ka","type":"asia","pinColor":"#4B2971","name":"Sen Sushi","entryId":"83","imageName":"","website":null,"address":"Erbprinzenstr. 32, 76133 Karlsruhe, Deutschland","lat":"49.0091","lng":"8.39672"},{"uid":"30","map":"de-ka","type":"asia","pinColor":"#4B2971","name":"Shogun Ya","entryId":"305","imageName":"","website":null,"address":"Herrenstr. 12, 76133 Karlsruhe, Deutschland","lat":"49.0104","lng":"8.39997"},{"uid":"40","map":"de-ka","type":"asia","pinColor":"#4B2971","name":"Soki Garden","entryId":"592","imageName":"","website":null,"address":"Waldstraße 24-28, 76133 Karlsruhe, Deutschland","lat":"49.0106","lng":"8.39805"},{"uid":"41","map":"de-ka","type":"asia","pinColor":"#4B2971","name":"Thai Foodland Imbiss","entryId":"555","imageName":"","website":null,"address":"Douglasstraße 12-14, 76133 Karlsruhe, Deutschland","lat":"49.0106","lng":"8.39342"},{"uid":"38","map":"de-ka","type":"asia","pinColor":"#4B2971","name":"Treffpunkt Nat-Pob","entryId":"512","imageName":"","website":null,"address":"Am Mühlburger Bahnhof 12, 76189 Karlsruhe, Deutschland","lat":"49.0166","lng":"8.35115"},{"uid":"1082","map":"de-ka","type":"asia","name":"Restaurant King Seng","url":"/restaurants/peking-ente-im-restaurant-king-seng/","imageName":"","website":null,"address":"Wilhelmstraße 19, 76137 Karlsruhe, Deutschland","lat":"49.00270","lng":"8.40574"},{"uid":"39","map":"de-ka","type":"asia","name":"Yangda im Südstern","entryId":"528","imageName":"","website":null,"address":"Ettlinger Allee 7, 76199 Karlsruhe, Deutschland","lat":"48.9855","lng":"8.4043"}],"burger":[{"uid":"76","map":"de-ka","type":"burger","name":"DeliBurgers","entryId":"483","imageName":"","website":null,"address":"Akademiestraße 39, 76133 Karlsruhe, Deutschland","lat":"49.011","lng":"8.39597"}],"german":[{"uid":"64","map":"de-ka","type":"german","name":"Anders auf dem Turmberg","entryId":"551","url":"/restaurants/zu-besuch-bei-anders-auf-dem-turmberg/","imageName":"","website":null,"address":"Reichardtstraße 22, 76227 Karlsruhe, Deutschland","lat":"48.9967","lng":"8.48525"},{"uid":"65","map":"de-ka","type":"german","pinColor":"#ff9900","name":"Braugasthaus Erste Fracht","entryId":"560","imageName":"","website":null,"address":"Bahnhofplatz 6, 76137 Karlsruhe, Deutschland","lat":"48.9949","lng":"8.40033"},{"uid":"68","map":"de-ka","type":"german","pinColor":"#ff9900","name":"Phono Craftbeer Bar","entryId":"641","imageName":"","website":null,"address":"Karl-Wilhelm-Straße 6, 76131 Karlsruhe, Deutschland","lat":"49.01","lng":"8.42022"},{"uid":"74","map":"de-ka","type":"german","pinColor":"#ff9900","name":"Restaurant Fünf","entryId":"770","imageName":"","website":null,"address":"Kanalstraße 52, 76149 Karlsruhe, Deutschland","lat":"49.033","lng":"8.39227"},{"uid":"106","type":"german","name":"Restaurant Kesselhaus","url":"/restaurants/restaurant-kesselhaus/","imageName":null,"website":null,"address":"Griesbachstraße 10c, 76185 Karlsruhe, Deutschland","lat":"49.0015","lng":"8.36492"},{"uid":"67","type":"german","pinColor":"#ff9900","name":"Restaurant Kommödchen","entryId":"611","imageName":"","website":null,"address":"Marienstraße 1, 76137 Karlsruhe, Deutschland","lat":"49.004","lng":"8.40805"},{"uid":"70","type":"german","name":"Restaurant Künstlerkneipe","entryId":"657","imageName":"","website":null,"address":"Pfarrstraße 18, 76189 Karlsruhe, Deutschland","lat":"49.005","lng":"8.32627"},{"uid":"69","type":"german","name":"Restaurant Reinhards","entryId":"648","imageName":"","website":null,"address":"Am Rüppurrer Schloss 9, 76199 Karlsruhe, Deutschland","lat":"48.9812","lng":"8.40626"},{"uid":"71","map":"de-ka","type":"german","pinColor":"#ff9900","name":"Restaurant Vin fou","entryId":"743","imageName":"","website":null,"address":"Lenzstraße 2, 76137 Karlsruhe, Deutschland","lat":"49.0019","lng":"8.38967"},{"uid":"63","map":"de-ka","type":"german","pinColor":"#ff9900","name":"Restaurant Werkbank","entryId":"450","imageName":"","website":null,"address":"Veilchenstr. 9, 76131 Karlsruhe, Deutschland","lat":"49.0102","lng":"8.4283"},{"uid":"72","map":"de-ka","type":"german","pinColor":"#ff9900","name":"Zum kleinen Ketterer","entryId":"748","imageName":"","website":null,"address":"Adlerstraße 34, 76133 Karlsruhe, Deutschland","lat":"49.0076","lng":"8.40754"},{"uid":"940","name":"Mühlburger Schnitzelburg","url":"/restaurants/muehlburger-schnitzelburg/","imageName":"","website":null,"address":"Am Mühlburger Bahnhof 16, 76189 Karlsruhe, Deutschland","lat":"49.01911","lng":"8.34970"},{"uid":"1024","name":"Schuh\u00b4s Restaurant","url":"/restaurants/schuhs-restaurant-in-eggenstein/","imageName":"","website":null,"address":"Siemensstraße 1, 76344 Eggenstein, Deutschland","lat":"49.07515","lng":"8.37887"}],"india":[{"uid":"62","map":"de-ka","type":"india","pinColor":"#BB2971","name":"Restaurant Indian Rasoi","entryId":"800","imageName":"","website":null,"address":"Pfinztalstraße 45, 76227 Karlsruhe","lat":"48.9992","lng":"8.47005"},{"uid":"59","map":"de-ka","type":"india","pinColor":"#BB2971","name":"Restaurant Jaipur","entryId":"51","imageName":"","website":null,"address":"Lessingstraße 52, 76135 Karlsruhe?, Deutschland","lat":"49.0073","lng":"8.38482"},{"uid":"61","map":"de-ka","type":"india","pinColor":"#BB2971","name":"Restaurant Maharaja","entryId":"396","imageName":"","website":null,"address":"Poststraße 8, 76137 Karlsruhe, Deutschland","lat":"48.9951","lng":"8.40272"}],"mediterran":[{"uid":"80","map":"de-ka","type":"mediterran","pinColor":"#9933cc","name":"Akropolis-Ziegler","entryId":"401","imageName":"","website":null,"address":"Baumeistr. 18, 76137 Karlsruhe, Deutschland","lat":"49.0039","lng":"8.40644"},{"uid":"77","map":"de-ka","type":"mediterran","pinColor":"#9933cc","name":"Bäckerei Ege","entryId":"89","imageName":"","website":null,"address":"Amalienstraße 91, Amalienstraße 91 Karlsruhe, Deutschland","lat":"49.01","lng":"8.38796"},{"uid":"87","map":"de-ka","type":"mediterran","pinColor":"#9933cc","name":"Besitos Karlsruhe","entryId":"655","imageName":"","website":null,"address":"Karl-Friedrich-Str. 9, 76133 Karlsruhe, Deutschland","lat":"49.0088","lng":"8.40421"},{"uid":"84","map":"de-ka","type":"mediterran","pinColor":"#9933cc","name":"Cafe Oktave","entryId":"601","imageName":"","website":null,"address":"Ludwig-Wilhelm-Straße 3, 76131 Karlsruhe, Deutschland","lat":"49.0094","lng":"8.42034"},{"uid":"82","map":"de-ka","type":"mediterran","pinColor":"#9933cc","name":"Casa do Jos\u00e9","entryId":"530","imageName":"","website":null,"address":"Kriegsstraße 92, 76133 Karlsruhe, Deutschland","lat":"49.0058","lng":"8.40691"},{"uid":"78","map":"de-ka","type":"mediterran","pinColor":"#9933cc","name":"Ocakbasi Antalya","entryId":"366","imageName":"","website":null,"address":"Schützenstraße 10, 76137 Karlsruhe, Deutschland","lat":"49.0022","lng":"8.40455"},{"uid":"79","map":"de-ka","type":"mediterran","pinColor":"#9933cc","name":"Panorama","entryId":"387","imageName":"","website":null,"address":"Karlstr. 101, 76137 Karlsruhe, Deutschland","lat":"48.9979","lng":"8.39397"},{"uid":"93","map":"de-ka","type":"mediterran","pinColor":"#9933cc","name":"Restaurant Alibaba","entryId":"860","imageName":"","website":null,"address":"Kreuzstraße 25, 76133 Karlsruhe, Deutschland","lat":"49.0066","lng":"8.40605"},{"uid":"81","map":"de-ka","type":"mediterran","pinColor":"#9933cc","name":"Restaurant Erasmus","entryId":"477","imageName":"","website":null,"address":"Nürnbergerstr. 1, 76199 Karlsruhe, Deutschland","lat":"48.9847","lng":"8.40306"},{"uid":"90","map":"de-ka","type":"mediterran","pinColor":"#9933cc","name":"Restaurant La Rose","entryId":"836","imageName":"","website":null,"address":"Akademiestraße 32, 76133 Karlsruhe, Deutschland","lat":"49.0112","lng":"8.39603"},{"uid":"83","map":"de-ka","type":"mediterran","pinColor":"#9933cc","name":"Ristorante Adria","entryId":"594","imageName":"","website":null,"address":"Breite Straße 24, 76135 Karlsruhe, Deutschland","lat":"48.9917","lng":"8.39255"},{"uid":"86","map":"de-ka","type":"mediterran","pinColor":"#9933cc","name":"Ristorante Tropea","entryId":"654","imageName":"","website":null,"address":"Morgenstrasse 22, 76137 Karlsruhe, Deutschland","lat":"49.0011","lng":"8.41301"},{"uid":"85","map":"de-ka","type":"mediterran","pinColor":"#9933cc","name":"Tasca do Jos\u00e9","entryId":"649","imageName":"","website":null,"address":"Waldstraße 50, 76133 Karlsruhe, Deutschland","lat":"49.0075","lng":"8.39306"},{"uid":"1072","map":"de-ka","type":"mediterran","pinColor":"#9933cc","name":"Bistro del Arte Cilantro","entryId":"649","imageName":"","website":null,"address":"Markgrafenstraße 31, 76133 Karlsruhe, Deutschland","lat":"49.00723","lng":"8.40632"}],"closed":[{"uid":"571","map":"de-ka","type":"closed","name":"Firlefanz (geschlossen)","url":"/restaurants/firlefanz-in-karlsruhe-geschlossen/","imageName":"","website":null,"address":"Fasanenstraße 6, 76131 Karlsruhe, Deutschland","lat":"49.00861","lng":"8.41298"},{"uid":"1","map":"de-ka","type":"closed","name":"Sushi King (geschlossen)","url":"/restaurants/sushi-king-in-karlsruhe-geschlossen/","imageName":"","website":null,"address":"Kaiserstraße 217, 76133 Karlsruhe, Deutschland","lat":"49.00936","lng":"8.39417"},{"uid":"60","map":"de-ka","type":"closed","name":"Banna Thai (geschlossen)","url":"/restaurants/banna-thai-in-karlsruhe-geschlossen/","imageName":"","website":null,"address":"Marie-Alexandra-Str. 15, 76135 Karlsruhe, Deutschland","lat":"48.99264","lng":"8.39193"},{"uid":"84","map":"de-ka","type":"closed","name":"Abrahamh\u00b4s Cocktail (geschlossen)","url":"/restaurants/abrahams-cocktail-geschlossen/","imageName":"","website":null,"address":"Am Künstlerhaus 45, 76131 Karlsruhe, Deutschland","lat":"49.00800","lng":"8.41420"},{"uid":"571","map":"de-ka","type":"closed","name":"Restaurant Kroran (geschlossen)","url":"/restaurants/uigurisches-restaurant-kroran-geschlossen/","imageName":"","website":null,"address":"Englerstraße 14, 76131 Karlsruhe, Deutschland","lat":"49.01006","lng":"8.41116"},{"uid":"810","map":"de-ka","type":"closed","name":"Jacques Meyers Culinarium (geschlossen)","url":"/restaurants/jacques-meyers-culinarium-geschlossen/","imageName":"","website":null,"address":"Friedrichstraße 17, 76229 Karlsruhe, Deutschland","lat":"49.0085","lng":"8.49836"},{"uid":"88","map":"de-ka","type":"closed","name":"Restaurant SAF (geschlossen)","url":"/restaurants/sizilianisches-restaurant-saf/","imageName":"","website":null,"address":"Badenwerkstraße am Festplatz 1, 76137 Karlsruhe, Deutschland","lat":"49.0031","lng":"8.4012"},{"uid":"626","map":"de-ka","type":"closed","name":"Restaurant Fiv5 Friends","url":"/restaurants/restaurant-fiv5-friends-geschlossen/","imageName":"","website":null,"address":"Gottesauer Straße 19, 76131 Karlsruhe, Deutschland","lat":"49.0076","lng":"8.41903"},{"uid":"934","map":"de-ka","type":"closed","name":"Pelmeneria (geschlossen)","url":"/restaurants/pelmeneria-in-karlsruhe/","imageName":"","website":null,"address":"Kaiserpassage 10, 76133 Karlsruhe, Deutschland","lat":"49.01083","lng":"8.39667"},{"uid":"788","map":"de-ka","type":"closed","name":"Schnellrestaurant Hanoi (geschlossen)","url":"/restaurants/schnellrestaurant-hanoi-geschlossen/","imageName":"","website":null,"address":"Hildebrandstraße 1, 76227 Karlsruhe-Durlach, Deutschland","lat":"48.99701","lng":"8.45943"},{"uid":"774","map":"de-ka","type":"closed","name":"China Bao (geschlossen)","url":"/restaurants/restaurant-china-bao-im-passagehof/","imageName":"","website":null,"address":"Kaiserstraße 132, 76133 Karlsruhe, Deutschland","lat":"49.01008","lng":"8.39631"},{"uid":"825","map":"de-ka","type":"closed","name":"Bangkok Foodland Imbiss (geschlossen)","url":"/restaurants/bangkok-foodland-imbiss/","imageName":"","website":null,"address":"Kaiserstraße 32, 76131 Karlsruhe, Deutschland","lat":"49.00950","lng":"8.40903"},{"uid":"60","map":"de-ka","type":"closed","name":"Thali im Caf\u00e9 Initial (geschlossen)","entryId":"304","url":"/restaurants/restaurant-thali-in-karlsruhe/","imageName":"","website":null,"address":"Ettlinger Straße 29, 76137 Karlsruhe, Deutschland","lat":"48.9986","lng":"8.40406"},{"uid":"492","map":"de-ka","type":"closed","name":"ikoi Sushi & Wok (geschlossen)","url":"/restaurants/ikoi-sushi-wok-in-karlsruhe-geschlossen/","imageName":"","website":null,"address":"Marienstr. 107, 76137 Karlsruhe, Deutschland","lat":"48.9963","lng":"8.40855"}]}